[
  {
    "name": "New York",
    "country": "US",
    "lat": 40.7128,
    "lon": -74.006,
    "tz": "America/New_York"
  },
  {
    "name": "Los Angeles",
    "country": "US",
    "lat": 34.0522,
    "lon": -118.2437,
    "tz": "America/Los_Angeles"
  },
  {
    "name": "Chicago",
    "country": "US",
    "lat": 41.8781,
    "lon": -87.6298,
    "tz": "America/Chicago"
  },
  {
    "name": "Houston",
    "country": "US",
    "lat": 29.7604,
    "lon": -95.3698,
    "tz": "America/Chicago"
  },
  {
    "name": "Phoenix",
    "country": "US",
    "lat": 33.4484,
    "lon": -112.074,
    "tz": "America/Phoenix"
  },
  {
    "name": "Philadelphia",
    "country": "US",
    "lat": 39.9526,
    "lon": -75.1652,
    "tz": "America/New_York"
  },
  {
    "name": "San Antonio",
    "country": "US",
    "lat": 29.4241,
    "lon": -98.4936,
    "tz": "America/Chicago"
  },
  {
    "name": "San Diego",
    "country": "US",
    "lat": 32.7157,
    "lon": -117.1611,
    "tz": "America/Los_Angeles"
  },
  {
    "name": "Dallas",
    "country": "US",
    "lat": 32.7767,
    "lon": -96.797,
    "tz": "America/Chicago"
  },
  {
    "name": "San Jose",
    "country": "US",
    "lat": 37.3382,
    "lon": -121.8863,
    "tz": "America/Los_Angeles"
  },
  {
    "name": "Austin",
    "country": "US",
    "lat": 30.2672,
    "lon": -97.7431,
    "tz": "America/Chicago"
  },
  {
    "name": "Jacksonville",
    "country": "US",
    "lat": 30.3322,
    "lon": -81.6557,
    "tz": "America/New_York"
  },
  {
    "name": "Fort Worth",
    "country": "US",
    "lat": 32.7555,
    "lon": -97.3308,
    "tz": "America/Chicago"
  },
  {
    "name": "Columbus",
    "country": "US",
    "lat": 39.9612,
    "lon": -82.9988,
    "tz": "America/New_York"
  },
  {
    "name": "Charlotte",
    "country": "US",
    "lat": 35.2271,
    "lon": -80.8431,
    "tz": "America/New_York"
  },
  {
    "name": "Indianapolis",
    "country": "US",
    "lat": 39.7684,
    "lon": -86.1581,
    "tz": "America/Indiana/Indianapolis"
  },
  {
    "name": "San Francisco",
    "country": "US",
    "lat": 37.7749,
    "lon": -122.4194,
    "tz": "America/Los_Angeles"
  },
  {
    "name": "Seattle",
    "country": "US",
    "lat": 47.6062,
    "lon": -122.3321,
    "tz": "America/Los_Angeles"
  },
  {
    "name": "Denver",
    "country": "US",
    "lat": 39.7392,
    "lon": -104.9903,
    "tz": "America/Denver"
  },
  {
    "name": "Washington",
    "country": "US",
    "lat": 38.9072,
    "lon": -77.0369,
    "tz": "America/New_York"
  },
  {
    "name": "Boston",
    "country": "US",
    "lat": 42.3601,
    "lon": -71.0589,
    "tz": "America/New_York"
  },
  {
    "name": "Las Vegas",
    "country": "US",
    "lat": 36.1699,
    "lon": -115.1398,
    "tz": "America/Los_Angeles"
  },
  {
    "name": "Portland",
    "country": "US",
    "lat": 45.5152,
    "lon": -122.6784,
    "tz": "America/Los_Angeles"
  },
  {
    "name": "Miami",
    "country": "US",
    "lat": 25.7617,
    "lon": -80.1918,
    "tz": "America/New_York"
  },
  {
    "name": "Atlanta",
    "country": "US",
    "lat": 33.749,
    "lon": -84.388,
    "tz": "America/New_York"
  },
  {
    "name": "New Orleans",
    "country": "US",
    "lat": 29.9511,
    "lon": -90.0715,
    "tz": "America/Chicago"
  },
  {
    "name": "Minneapolis",
    "country": "US",
    "lat": 44.9778,
    "lon": -93.265,
    "tz": "America/Chicago"
  },
  {
    "name": "Detroit",
    "country": "US",
    "lat": 42.3314,
    "lon": -83.0458,
    "tz": "America/Detroit"
  },
  {
    "name": "St. Louis",
    "country": "US",
    "lat": 38.627,
    "lon": -90.1994,
    "tz": "America/Chicago"
  },
  {
    "name": "Baltimore",
    "country": "US",
    "lat": 39.2904,
    "lon": -76.6122,
    "tz": "America/New_York"
  },
  {
    "name": "Honolulu",
    "country": "US",
    "lat": 21.3069,
    "lon": -157.8583,
    "tz": "Pacific/Honolulu"
  },
  {
    "name": "Kailua-Kona",
    "country": "US",
    "lat": 19.64,
    "lon": -155.99,
    "tz": "Pacific/Honolulu"
  },
  {
    "name": "Anchorage",
    "country": "US",
    "lat": 61.2181,
    "lon": -149.9003,
    "tz": "America/Anchorage"
  },
  {
    "name": "London",
    "country": "GB",
    "lat": 51.5074,
    "lon": -0.1278,
    "tz": "Europe/London"
  },
  {
    "name": "Manchester",
    "country": "GB",
    "lat": 53.4808,
    "lon": -2.2426,
    "tz": "Europe/London"
  },
  {
    "name": "Birmingham",
    "country": "GB",
    "lat": 52.4862,
    "lon": -1.8904,
    "tz": "Europe/London"
  },
  {
    "name": "Edinburgh",
    "country": "GB",
    "lat": 55.9533,
    "lon": -3.1883,
    "tz": "Europe/London"
  },
  {
    "name": "Glasgow",
    "country": "GB",
    "lat": 55.8642,
    "lon": -4.2518,
    "tz": "Europe/London"
  },
  {
    "name": "Paris",
    "country": "FR",
    "lat": 48.8566,
    "lon": 2.3522,
    "tz": "Europe/Paris"
  },
  {
    "name": "Lyon",
    "country": "FR",
    "lat": 45.764,
    "lon": 4.8357,
    "tz": "Europe/Paris"
  },
  {
    "name": "Marseille",
    "country": "FR",
    "lat": 43.2965,
    "lon": 5.3698,
    "tz": "Europe/Paris"
  },
  {
    "name": "Berlin",
    "country": "DE",
    "lat": 52.52,
    "lon": 13.405,
    "tz": "Europe/Berlin"
  },
  {
    "name": "Munich",
    "country": "DE",
    "lat": 48.1351,
    "lon": 11.582,
    "tz": "Europe/Berlin"
  },
  {
    "name": "Hamburg",
    "country": "DE",
    "lat": 53.5511,
    "lon": 9.9937,
    "tz": "Europe/Berlin"
  },
  {
    "name": "Frankfurt",
    "country": "DE",
    "lat": 50.1109,
    "lon": 8.6821,
    "tz": "Europe/Berlin"
  },
  {
    "name": "Cologne",
    "country": "DE",
    "lat": 50.9375,
    "lon": 6.9603,
    "tz": "Europe/Berlin"
  },
  {
    "name": "Rome",
    "country": "IT",
    "lat": 41.9028,
    "lon": 12.4964,
    "tz": "Europe/Rome"
  },
  {
    "name": "Milan",
    "country": "IT",
    "lat": 45.4642,
    "lon": 9.19,
    "tz": "Europe/Rome"
  },
  {
    "name": "Naples",
    "country": "IT",
    "lat": 40.8518,
    "lon": 14.2681,
    "tz": "Europe/Rome"
  },
  {
    "name": "Florence",
    "country": "IT",
    "lat": 43.7696,
    "lon": 11.2558,
    "tz": "Europe/Rome"
  },
  {
    "name": "Venice",
    "country": "IT",
    "lat": 45.4408,
    "lon": 12.3155,
    "tz": "Europe/Rome"
  },
  {
    "name": "Madrid",
    "country": "ES",
    "lat": 40.4168,
    "lon": -3.7038,
    "tz": "Europe/Madrid"
  },
  {
    "name": "Barcelona",
    "country": "ES",
    "lat": 41.3851,
    "lon": 2.1734,
    "tz": "Europe/Madrid"
  },
  {
    "name": "Valencia",
    "country": "ES",
    "lat": 39.4699,
    "lon": -0.3763,
    "tz": "Europe/Madrid"
  },
  {
    "name": "Seville",
    "country": "ES",
    "lat": 37.3891,
    "lon": -5.9845,
    "tz": "Europe/Madrid"
  },
  {
    "name": "Lisbon",
    "country": "PT",
    "lat": 38.7223,
    "lon": -9.1393,
    "tz": "Europe/Lisbon"
  },
  {
    "name": "Porto",
    "country": "PT",
    "lat": 41.1579,
    "lon": -8.6291,
    "tz": "Europe/Lisbon"
  },
  {
    "name": "Amsterdam",
    "country": "NL",
    "lat": 52.3676,
    "lon": 4.9041,
    "tz": "Europe/Amsterdam"
  },
  {
    "name": "Rotterdam",
    "country": "NL",
    "lat": 51.9244,
    "lon": 4.4777,
    "tz": "Europe/Amsterdam"
  },
  {
    "name": "Brussels",
    "country": "BE",
    "lat": 50.8503,
    "lon": 4.3517,
    "tz": "Europe/Brussels"
  },
  {
    "name": "Vienna",
    "country": "AT",
    "lat": 48.2082,
    "lon": 16.3738,
    "tz": "Europe/Vienna"
  },
  {
    "name": "Zurich",
    "country": "CH",
    "lat": 47.3769,
    "lon": 8.5417,
    "tz": "Europe/Zurich"
  },
  {
    "name": "Geneva",
    "country": "CH",
    "lat": 46.2044,
    "lon": 6.1432,
    "tz": "Europe/Zurich"
  },
  {
    "name": "Bern",
    "country": "CH",
    "lat": 46.948,
    "lon": 7.4474,
    "tz": "Europe/Zurich"
  },
  {
    "name": "Stockholm",
    "country": "SE",
    "lat": 59.3293,
    "lon": 18.0686,
    "tz": "Europe/Stockholm"
  },
  {
    "name": "Copenhagen",
    "country": "DK",
    "lat": 55.6761,
    "lon": 12.5683,
    "tz": "Europe/Copenhagen"
  },
  {
    "name": "Oslo",
    "country": "NO",
    "lat": 59.9139,
    "lon": 10.7522,
    "tz": "Europe/Oslo"
  },
  {
    "name": "Helsinki",
    "country": "FI",
    "lat": 60.1699,
    "lon": 24.9384,
    "tz": "Europe/Helsinki"
  },
  {
    "name": "Dublin",
    "country": "IE",
    "lat": 53.3498,
    "lon": -6.2603,
    "tz": "Europe/Dublin"
  },
  {
    "name": "Cork",
    "country": "IE",
    "lat": 51.8969,
    "lon": -8.4863,
    "tz": "Europe/Dublin"
  },
  {
    "name": "Prague",
    "country": "CZ",
    "lat": 50.0755,
    "lon": 14.4378,
    "tz": "Europe/Prague"
  },
  {
    "name": "Warsaw",
    "country": "PL",
    "lat": 52.2297,
    "lon": 21.0122,
    "tz": "Europe/Warsaw"
  },
  {
    "name": "Krakow",
    "country": "PL",
    "lat": 50.0647,
    "lon": 19.945,
    "tz": "Europe/Warsaw"
  },
  {
    "name": "Budapest",
    "country": "HU",
    "lat": 47.4979,
    "lon": 19.0402,
    "tz": "Europe/Budapest"
  },
  {
    "name": "Athens",
    "country": "GR",
    "lat": 37.9838,
    "lon": 23.7275,
    "tz": "Europe/Athens"
  },
  {
    "name": "Thessaloniki",
    "country": "GR",
    "lat": 40.6401,
    "lon": 22.9444,
    "tz": "Europe/Athens"
  },
  {
    "name": "Istanbul",
    "country": "TR",
    "lat": 41.0082,
    "lon": 28.9784,
    "tz": "Europe/Istanbul"
  },
  {
    "name": "Ankara",
    "country": "TR",
    "lat": 39.9334,
    "lon": 32.8597,
    "tz": "Europe/Istanbul"
  },
  {
    "name": "Moscow",
    "country": "RU",
    "lat": 55.7558,
    "lon": 37.6173,
    "tz": "Europe/Moscow"
  },
  {
    "name": "St. Petersburg",
    "country": "RU",
    "lat": 59.9311,
    "lon": 30.3609,
    "tz": "Europe/Moscow"
  },
  {
    "name": "Kyiv",
    "country": "UA",
    "lat": 50.4501,
    "lon": 30.5234,
    "tz": "Europe/Kyiv"
  },
  {
    "name": "Toronto",
    "country": "CA",
    "lat": 43.6532,
    "lon": -79.3832,
    "tz": "America/Toronto"
  },
  {
    "name": "Vancouver",
    "country": "CA",
    "lat": 49.2827,
    "lon": -123.1207,
    "tz": "America/Vancouver"
  },
  {
    "name": "Montreal",
    "country": "CA",
    "lat": 45.5017,
    "lon": -73.5673,
    "tz": "America/Toronto"
  },
  {
    "name": "Calgary",
    "country": "CA",
    "lat": 51.0447,
    "lon": -114.0719,
    "tz": "America/Edmonton"
  },
  {
    "name": "Edmonton",
    "country": "CA",
    "lat": 53.5461,
    "lon": -113.4938,
    "tz": "America/Edmonton"
  },
  {
    "name": "Ottawa",
    "country": "CA",
    "lat": 45.4215,
    "lon": -75.6972,
    "tz": "America/Toronto"
  },
  {
    "name": "Quebec City",
    "country": "CA",
    "lat": 46.8139,
    "lon": -71.208,
    "tz": "America/Toronto"
  },
  {
    "name": "Winnipeg",
    "country": "CA",
    "lat": 49.8951,
    "lon": -97.1384,
    "tz": "America/Winnipeg"
  },
  {
    "name": "Mexico City",
    "country": "MX",
    "lat": 19.4326,
    "lon": -99.1332,
    "tz": "America/Mexico_City"
  },
  {
    "name": "Guadalajara",
    "country": "MX",
    "lat": 20.6597,
    "lon": -103.3516,
    "tz": "America/Mexico_City"
  },
  {
    "name": "Cancun",
    "country": "MX",
    "lat": 21.1619,
    "lon": -86.8515,
    "tz": "America/Cancun"
  },
  {
    "name": "Monterrey",
    "country": "MX",
    "lat": 25.6866,
    "lon": -100.3161,
    "tz": "America/Monterrey"
  },
  {
    "name": "S\u00e3o Paulo",
    "country": "BR",
    "lat": -23.5505,
    "lon": -46.6333,
    "tz": "America/Sao_Paulo"
  },
  {
    "name": "Rio de Janeiro",
    "country": "BR",
    "lat": -22.9068,
    "lon": -43.1729,
    "tz": "America/Sao_Paulo"
  },
  {
    "name": "Bras\u00edlia",
    "country": "BR",
    "lat": -15.7975,
    "lon": -47.8919,
    "tz": "America/Sao_Paulo"
  },
  {
    "name": "Buenos Aires",
    "country": "AR",
    "lat": -34.6037,
    "lon": -58.3816,
    "tz": "America/Argentina/Buenos_Aires"
  },
  {
    "name": "Lima",
    "country": "PE",
    "lat": -12.0464,
    "lon": -77.0428,
    "tz": "America/Lima"
  },
  {
    "name": "Bogot\u00e1",
    "country": "CO",
    "lat": 4.711,
    "lon": -74.0721,
    "tz": "America/Bogota"
  },
  {
    "name": "Santiago",
    "country": "CL",
    "lat": -33.4489,
    "lon": -70.6693,
    "tz": "America/Santiago"
  },
  {
    "name": "Caracas",
    "country": "VE",
    "lat": 10.4806,
    "lon": -66.9036,
    "tz": "America/Caracas"
  },
  {
    "name": "Sydney",
    "country": "AU",
    "lat": -33.8688,
    "lon": 151.2093,
    "tz": "Australia/Sydney"
  },
  {
    "name": "Melbourne",
    "country": "AU",
    "lat": -37.8136,
    "lon": 144.9631,
    "tz": "Australia/Melbourne"
  },
  {
    "name": "Brisbane",
    "country": "AU",
    "lat": -27.4698,
    "lon": 153.0251,
    "tz": "Australia/Brisbane"
  },
  {
    "name": "Perth",
    "country": "AU",
    "lat": -31.9505,
    "lon": 115.8605,
    "tz": "Australia/Perth"
  },
  {
    "name": "Adelaide",
    "country": "AU",
    "lat": -34.9285,
    "lon": 138.6007,
    "tz": "Australia/Adelaide"
  },
  {
    "name": "Auckland",
    "country": "NZ",
    "lat": -36.8485,
    "lon": 174.7633,
    "tz": "Pacific/Auckland"
  },
  {
    "name": "Wellington",
    "country": "NZ",
    "lat": -41.2865,
    "lon": 174.7762,
    "tz": "Pacific/Auckland"
  },
  {
    "name": "Tokyo",
    "country": "JP",
    "lat": 35.6762,
    "lon": 139.6503,
    "tz": "Asia/Tokyo"
  },
  {
    "name": "Osaka",
    "country": "JP",
    "lat": 34.6937,
    "lon": 135.5023,
    "tz": "Asia/Tokyo"
  },
  {
    "name": "Kyoto",
    "country": "JP",
    "lat": 35.0116,
    "lon": 135.7681,
    "tz": "Asia/Tokyo"
  },
  {
    "name": "Yokohama",
    "country": "JP",
    "lat": 35.4437,
    "lon": 139.638,
    "tz": "Asia/Tokyo"
  },
  {
    "name": "Nagoya",
    "country": "JP",
    "lat": 35.1815,
    "lon": 136.9064,
    "tz": "Asia/Tokyo"
  },
  {
    "name": "Seoul",
    "country": "KR",
    "lat": 37.5665,
    "lon": 126.978,
    "tz": "Asia/Seoul"
  },
  {
    "name": "Busan",
    "country": "KR",
    "lat": 35.1796,
    "lon": 129.0756,
    "tz": "Asia/Seoul"
  },
  {
    "name": "Beijing",
    "country": "CN",
    "lat": 39.9042,
    "lon": 116.4074,
    "tz": "Asia/Shanghai"
  },
  {
    "name": "Shanghai",
    "country": "CN",
    "lat": 31.2304,
    "lon": 121.4737,
    "tz": "Asia/Shanghai"
  },
  {
    "name": "Hong Kong",
    "country": "HK",
    "lat": 22.3193,
    "lon": 114.1694,
    "tz": "Asia/Hong_Kong"
  },
  {
    "name": "Taipei",
    "country": "TW",
    "lat": 25.033,
    "lon": 121.5654,
    "tz": "Asia/Taipei"
  },
  {
    "name": "Singapore",
    "country": "SG",
    "lat": 1.3521,
    "lon": 103.8198,
    "tz": "Asia/Singapore"
  },
  {
    "name": "Bangkok",
    "country": "TH",
    "lat": 13.7563,
    "lon": 100.5018,
    "tz": "Asia/Bangkok"
  },
  {
    "name": "Ho Chi Minh City",
    "country": "VN",
    "lat": 10.8231,
    "lon": 106.6297,
    "tz": "Asia/Ho_Chi_Minh"
  },
  {
    "name": "Hanoi",
    "country": "VN",
    "lat": 21.0285,
    "lon": 105.8542,
    "tz": "Asia/Ho_Chi_Minh"
  },
  {
    "name": "Jakarta",
    "country": "ID",
    "lat": -6.2088,
    "lon": 106.8456,
    "tz": "Asia/Jakarta"
  },
  {
    "name": "Bali",
    "country": "ID",
    "lat": -8.3405,
    "lon": 115.092,
    "tz": "Asia/Makassar"
  },
  {
    "name": "Manila",
    "country": "PH",
    "lat": 14.5995,
    "lon": 120.9842,
    "tz": "Asia/Manila"
  },
  {
    "name": "Kuala Lumpur",
    "country": "MY",
    "lat": 3.139,
    "lon": 101.6869,
    "tz": "Asia/Kuala_Lumpur"
  },
  {
    "name": "Mumbai",
    "country": "IN",
    "lat": 19.076,
    "lon": 72.8777,
    "tz": "Asia/Kolkata"
  },
  {
    "name": "Delhi",
    "country": "IN",
    "lat": 28.7041,
    "lon": 77.1025,
    "tz": "Asia/Kolkata"
  },
  {
    "name": "Bangalore",
    "country": "IN",
    "lat": 12.9716,
    "lon": 77.5946,
    "tz": "Asia/Kolkata"
  },
  {
    "name": "Kolkata",
    "country": "IN",
    "lat": 22.5726,
    "lon": 88.3639,
    "tz": "Asia/Kolkata"
  },
  {
    "name": "Chennai",
    "country": "IN",
    "lat": 13.0827,
    "lon": 80.2705,
    "tz": "Asia/Kolkata"
  },
  {
    "name": "Hyderabad",
    "country": "IN",
    "lat": 17.385,
    "lon": 78.4867,
    "tz": "Asia/Kolkata"
  },
  {
    "name": "Dubai",
    "country": "AE",
    "lat": 25.2048,
    "lon": 55.2708,
    "tz": "Asia/Dubai"
  },
  {
    "name": "Abu Dhabi",
    "country": "AE",
    "lat": 24.4539,
    "lon": 54.3213,
    "tz": "Asia/Dubai"
  },
  {
    "name": "Tel Aviv",
    "country": "IL",
    "lat": 32.0853,
    "lon": 34.7818,
    "tz": "Asia/Jerusalem"
  },
  {
    "name": "Jerusalem",
    "country": "IL",
    "lat": 31.7683,
    "lon": 35.2137,
    "tz": "Asia/Jerusalem"
  },
  {
    "name": "Cairo",
    "country": "EG",
    "lat": 30.0444,
    "lon": 31.2357,
    "tz": "Africa/Cairo"
  },
  {
    "name": "Johannesburg",
    "country": "ZA",
    "lat": -26.2041,
    "lon": 28.0473,
    "tz": "Africa/Johannesburg"
  },
  {
    "name": "Cape Town",
    "country": "ZA",
    "lat": -33.9249,
    "lon": 18.4241,
    "tz": "Africa/Johannesburg"
  },
  {
    "name": "Nairobi",
    "country": "KE",
    "lat": -1.2921,
    "lon": 36.8219,
    "tz": "Africa/Nairobi"
  },
  {
    "name": "Lagos",
    "country": "NG",
    "lat": 6.5244,
    "lon": 3.3792,
    "tz": "Africa/Lagos"
  },
  {
    "name": "Casablanca",
    "country": "MA",
    "lat": 33.5731,
    "lon": -7.5898,
    "tz": "Africa/Casablanca"
  },
  {
    "name": "Rabat",
    "country": "MA",
    "lat": 34.0209,
    "lon": -6.8416,
    "tz": "Africa/Casablanca"
  },
  {
    "name": "Casablanca",
    "country": "MA",
    "lat": 33.5731,
    "lon": -7.5898,
    "tz": "Africa/Casablanca"
  },
  {
    "name": "Addis Ababa",
    "country": "ET",
    "lat": 8.9806,
    "lon": 38.7578,
    "tz": "Africa/Addis_Ababa"
  },
  {
    "name": "Accra",
    "country": "GH",
    "lat": 5.6037,
    "lon": -0.1869,
    "tz": "Africa/Accra"
  },
  {
    "name": "Reykjavik",
    "country": "IS",
    "lat": 64.1466,
    "lon": -21.9426,
    "tz": "Atlantic/Reykjavik"
  },
  {
    "name": "Troms\u00f8",
    "country": "NO",
    "lat": 69.6492,
    "lon": 18.9553,
    "tz": "Europe/Oslo"
  },
  {
    "name": "Helsinki",
    "country": "FI",
    "lat": 60.1699,
    "lon": 24.9384,
    "tz": "Europe/Helsinki"
  },
  {
    "name": "Zurich",
    "country": "CH",
    "lat": 47.3769,
    "lon": 8.5417,
    "tz": "Europe/Zurich"
  }
]